     3.05           OBSERVATION DATA    M (MIXED)           RINEX VERSION / TYPE
cnvtToRINEX 3.14.0  REGINA              20230101 011530 UTC PGM / RUN BY / DATE
gfzrnx-2.00-8219    FILE PROCESSING     20230326 102750 UTC COMMENT
INITIAL_RINEX_VERSION: 3.04                                 COMMENT
TLSE                                                        MARKER NAME
10003M009                                                   MARKER NUMBER
Automatic           CNES                                    OBSERVER / AGENCY
6139R40106          TRIMBLE ALLOY       6.14                REC # / TYPE / VERS
5129354206          TRM59800.00     NONE                    ANT # / TYPE
        1.0530        0.0000        0.0000                  ANTENNA: DELTA H/E/N
  4627852.3520   119640.5351  4372994.4909                  APPROX POSITION XYZ
C   24 C1X C2I C5X C6I C7D C7I D1X D2I D5X D6I D7D D7I L1X  SYS / # / OBS TYPES
       L2I L5X L6I L7D L7I S1X S2I S5X S6I S7D S7I          SYS / # / OBS TYPES
E   20 C1X C5X C6X C7X C8X D1X D5X D6X D7X D8X L1X L5X L6X  SYS / # / OBS TYPES
       L7X L8X S1X S5X S6X S7X S8X                          SYS / # / OBS TYPES
G   20 C1C C1X C2W C2X C5X D1C D1X D2W D2X D5X L1C L1X L2W  SYS / # / OBS TYPES
       L2X L5X S1C S1X S2W S2X S5X                          SYS / # / OBS TYPES
I    4 C5A D5A L5A S5A                                      SYS / # / OBS TYPES
R   16 C1C C1P C2C C2P D1C D1P D2C D2P L1C L1P L2C L2P S1C  SYS / # / OBS TYPES
       S1P S2C S2P                                          SYS / # / OBS TYPES
S    8 C1C C5I D1C D5I L1C L5I S1C S5I                      SYS / # / OBS TYPES
----------------------------------------------------------- COMMENT
GEODETIC                                                    MARKER TYPE
     0                                                      RCV CLOCK OFFS APPL
 11 R01  1 R06 -4 R07  5 R08  6 R13 -2 R14 -7 R15  0 R21  4 GLONASS SLOT / FRQ #
    R22 -3 R23  3 R24  2                                    GLONASS SLOT / FRQ #
R L1P  0.25000                                              SYS / PHASE SHIFT
R L2C -0.25000                                              SYS / PHASE SHIFT
R L2P  0.00000                                              SYS / PHASE SHIFT
G L1X  0.25000                                              SYS / PHASE SHIFT
G L2X -0.25000                                              SYS / PHASE SHIFT
    18                                                      LEAP SECONDS
DBHZ                                                        SIGNAL STRENGTH UNIT
 C1C    0.000 C1P    0.000 C2C    0.000 C2P    0.000        GLONASS COD/PHS/BIS
C                                                           SYS / PHASE SHIFT
E                                                           SYS / PHASE SHIFT
I                                                           SYS / PHASE SHIFT
S                                                           SYS / PHASE SHIFT
GFZRNX.NUM_EPOCHS: 10                                       COMMENT
    50                                                      # OF SATELLITES
   C05          10          10          10          10      PRN / # OF OBS
           9           9          10          10          10PRN / # OF OBS
                10          10          10                  PRN / # OF OBS
   C06          10          10          10          10      PRN / # OF OBS
           9           9          10          10          10PRN / # OF OBS
                10          10          10                  PRN / # OF OBS
   C09          10          10          10          10      PRN / # OF OBS
           9           9          10          10          10PRN / # OF OBS
                10          10          10                  PRN / # OF OBS
   C14          10          10          10          10      PRN / # OF OBS
           9           9          10          10          10PRN / # OF OBS
                10          10          10                  PRN / # OF OBS
   C16          10          10          10          10      PRN / # OF OBS
           9           9          10          10          10PRN / # OF OBS
                10          10          10                  PRN / # OF OBS
   C27    10    10    10    10    10           9    10     9PRN / # OF OBS
           9     9          10    10    10    10    10      PRN / # OF OBS
          10    10    10    10    10                        PRN / # OF OBS
   C28    10    10    10    10    10           9    10     9PRN / # OF OBS
           9     9          10    10    10    10    10      PRN / # OF OBS
          10    10    10    10    10                        PRN / # OF OBS
   C30    10    10    10    10     6           9    10     9PRN / # OF OBS
           9     3          10    10    10    10     4      PRN / # OF OBS
          10    10    10    10     6                        PRN / # OF OBS
   C32    10    10    10    10    10           9    10     9PRN / # OF OBS
           9     9          10    10    10    10    10      PRN / # OF OBS
          10    10    10    10    10                        PRN / # OF OBS
   C33    10    10    10    10    10           9    10     9PRN / # OF OBS
           9     9          10    10    10    10    10      PRN / # OF OBS
          10    10    10    10    10                        PRN / # OF OBS
   C36    10    10    10    10    10           9    10     9PRN / # OF OBS
           9     9          10    10    10    10    10      PRN / # OF OBS
          10    10    10    10    10                        PRN / # OF OBS
   C39    10    10    10    10    10           9    10     9PRN / # OF OBS
           9     9          10    10    10    10    10      PRN / # OF OBS
          10    10    10    10    10                        PRN / # OF OBS
   C41    10    10    10    10    10           9    10     9PRN / # OF OBS
           9     9          10    10    10    10    10      PRN / # OF OBS
          10    10    10    10    10                        PRN / # OF OBS
   C42    10    10    10    10    10           9    10     9PRN / # OF OBS
           9     9          10    10    10    10    10      PRN / # OF OBS
          10    10    10    10    10                        PRN / # OF OBS
   C43    10    10    10    10    10           9    10     9PRN / # OF OBS
           9     9          10    10    10    10    10      PRN / # OF OBS
          10    10    10    10    10                        PRN / # OF OBS
   E02    10    10    10    10    10    10     9     9     9PRN / # OF OBS
           9    10    10    10    10    10    10    10    10PRN / # OF OBS
          10    10                                          PRN / # OF OBS
   E04    10    10    10    10    10    10     9     9     9PRN / # OF OBS
           9    10    10    10    10    10    10    10    10PRN / # OF OBS
          10    10                                          PRN / # OF OBS
   E10    10    10    10    10    10    10     9     9     9PRN / # OF OBS
           9    10    10    10    10    10    10    10    10PRN / # OF OBS
          10    10                                          PRN / # OF OBS
   E11    10    10    10    10    10    10     9     9     9PRN / # OF OBS
           9    10    10    10    10    10    10    10    10PRN / # OF OBS
          10    10                                          PRN / # OF OBS
   E12    10    10    10    10    10    10     9     9     9PRN / # OF OBS
           9    10    10    10    10    10    10    10    10PRN / # OF OBS
          10    10                                          PRN / # OF OBS
   E19    10    10    10    10    10    10     9     9     9PRN / # OF OBS
           9    10    10    10    10    10    10    10    10PRN / # OF OBS
          10    10                                          PRN / # OF OBS
   E24    10    10    10    10    10    10     9     9     9PRN / # OF OBS
           9    10    10    10    10    10    10    10    10PRN / # OF OBS
          10    10                                          PRN / # OF OBS
   E25    10    10    10    10    10    10     9     9     9PRN / # OF OBS
           9    10    10    10    10    10    10    10    10PRN / # OF OBS
          10    10                                          PRN / # OF OBS
   E33    10    10    10    10    10    10     9     9     9PRN / # OF OBS
           9    10    10    10    10    10    10    10    10PRN / # OF OBS
          10    10                                          PRN / # OF OBS
   G01    10          10    10    10    10           9     9PRN / # OF OBS
           9    10          10    10    10    10          10PRN / # OF OBS
          10    10                                          PRN / # OF OBS
   G03    10          10    10    10    10           9     9PRN / # OF OBS
           9    10          10    10    10    10          10PRN / # OF OBS
          10    10                                          PRN / # OF OBS
   G08    10          10    10    10    10           9     9PRN / # OF OBS
           9    10          10    10    10    10          10PRN / # OF OBS
          10    10                                          PRN / # OF OBS
   G10    10          10    10    10    10           9     9PRN / # OF OBS
           9    10          10    10    10    10          10PRN / # OF OBS
          10    10                                          PRN / # OF OBS
   G14    10    10    10    10    10    10     9     9     9PRN / # OF OBS
           9    10    10    10    10    10    10    10    10PRN / # OF OBS
          10    10                                          PRN / # OF OBS
   G17    10          10    10          10           9     9PRN / # OF OBS
                 5           5    10          10          10PRN / # OF OBS
          10                                                PRN / # OF OBS
   G21    10          10                10           9      PRN / # OF OBS
                10          10                10          10PRN / # OF OBS
                                                            PRN / # OF OBS
   G22    10          10                10           9      PRN / # OF OBS
                10          10                10          10PRN / # OF OBS
                                                            PRN / # OF OBS
   G27    10          10    10    10    10           9     9PRN / # OF OBS
           9    10          10    10    10    10          10PRN / # OF OBS
          10    10                                          PRN / # OF OBS
   G32    10          10    10    10    10           9     9PRN / # OF OBS
           9    10          10    10    10    10          10PRN / # OF OBS
          10    10                                          PRN / # OF OBS
   I06    10    10    10    10                              PRN / # OF OBS
   I09    10    10    10    10                              PRN / # OF OBS
   R01    10    10    10    10    10     9     9     9    10PRN / # OF OBS
          10    10    10    10    10    10    10            PRN / # OF OBS
   R06    10    10                10     9                10PRN / # OF OBS
          10                10    10                        PRN / # OF OBS
   R07    10    10    10    10    10     9     9     9    10PRN / # OF OBS
          10    10    10    10    10    10    10            PRN / # OF OBS
   R08    10    10    10    10    10     9     9     9    10PRN / # OF OBS
          10    10    10    10    10    10    10            PRN / # OF OBS
   R14    10    10    10    10    10     9     9     9    10PRN / # OF OBS
          10    10    10    10    10    10    10            PRN / # OF OBS
   R15    10    10    10    10    10     9     9     9    10PRN / # OF OBS
          10    10    10    10    10    10    10            PRN / # OF OBS
   R21    10    10    10    10    10     9     9     9    10PRN / # OF OBS
          10    10    10    10    10    10    10            PRN / # OF OBS
   R22    10    10    10    10    10     9     9     9    10PRN / # OF OBS
          10    10    10    10    10    10    10            PRN / # OF OBS
   R23    10    10                10     9                10PRN / # OF OBS
          10                10    10                        PRN / # OF OBS
   R24    10    10    10    10    10     9     9     9    10PRN / # OF OBS
          10    10    10    10    10    10    10            PRN / # OF OBS
   S23    10    10    10     9    10    10    10    10      PRN / # OF OBS
   S26    10          10          10          10            PRN / # OF OBS
   S36    10    10    10     9    10    10    10    10      PRN / # OF OBS
   S48    10          10          10          10            PRN / # OF OBS
     1.000                                                  INTERVAL
  2023     1     1     1     0    0.0000000     GPS         TIME OF FIRST OBS
  2023     1     1     1     0    9.0000000     GPS         TIME OF LAST OBS
                                                            END OF HEADER
> 2023 01 01 01 00 00.0000000  0 50
C05                  39902331.273 5                  39902320.285 6                  39902322.902 6                       -19.172 5                                                                                 207781898.727 5                 168839789.973 6                 160670126.818 6                        35.600                          37.400                          39.600
C06                  40000442.984 5                  40000429.172 6                  40000434.105 6                      1162.184 5                                                                                 208292809.564 5                 169254923.719 6                 161065182.160 6                        35.400                          36.400                          38.500
C09                  40372662.367 6                  40372648.664 6                  40372655.832 6                      1497.070 6                                                                                 210231057.309 6                 170829907.450 6                 162563966.822 6                        37.400                          36.000                          39.000
C14                  23680593.906 7                  23680580.781 7                  23680586.535 7                     -2323.977 7                                                                                 123311159.412 7                 100200394.645 7                  95352014.133 7                        46.000                          47.300                          47.800
C16                  40171937.031 6                  40171927.113 5                  40171934.406 6                       953.617 6                                                                                 209185825.472 6                 169980581.220 5                 161755737.866 6                        39.200                          35.700                          38.600
C27  22490187.461 8  22490188.617 8  22490185.074 8  22490179.188 8  22490182.578 7                                      1831.172 8                                                                 118186732.156 8 117112327.864 8  88256340.206 8  95163322.315 8  90558661.204 7                        50.300          51.500          50.900          50.900          45.200
C28  21792700.352 8  21792701.875 8  21792698.363 8  21792692.555 8  21792696.270 7                                      -873.164 8                                                                 114521439.792 8 113480350.596 8  85519277.174 8  92212057.664 8  87750196.907 7                        52.100          51.600          52.400          52.300          47.200
C30  26684811.707 5  26684812.703 5  26684810.387 5  26684805.320 5  26684809.297 4                                      3035.309 5                                                                 140229624.876 5 138954825.609 5 104716936.791 5 112912146.478 5                                        35.900          34.300          35.500          35.900          27.200
C32  26871934.660 5  26871936.227 5  26871936.434 6  26871928.594 6  26871933.680 5                                      3469.910 5                                                                 141212957.987 5 139929231.340 5 105451263.156 6 113703935.689 6 108202145.619 5                        35.200          35.400          40.200          37.700          32.300
C33  22490593.090 8  22490594.000 8  22490615.492 8  22490597.012 8  22490612.914 7                                      -887.484 8                                                                 118188984.462 8 117114560.843 8  88258144.962 8  95165237.599 8  90560521.014 7                        53.000          52.000          53.500          52.300          47.300
C36  27217628.164 6  27217629.430 6  27217631.980 6  27217625.191 6  27217629.793 5                                      -746.023 6                                                                 143029593.642 6 141729341.105 6 106807837.837 6 115166686.246 6 109594118.470 5                        36.100          37.600          40.800          40.600          33.500
C39  40042496.934 6  40042497.250 6  40042491.578 7  40042485.180 6  40042489.313 5                                       606.137 6                                                                 210424735.343 6 208511791.755 6 157135355.300 7 169432868.050 6 161234518.336 5                        40.900          39.200          42.400          39.900          35.300
C41  22729843.254 8  22729843.789 8  22729850.797 8  22729840.563 8  22729848.344 7                                      2198.184 8                                                                 119446183.317 8 118360318.998 8  89196873.549 8  96177460.900 8  91523734.348 7                        51.800          50.900          53.000          51.000          46.000
C42  26192829.645 6  26192830.750 6  26192837.777 6  26192830.074 6  26192835.648 5                                     -3073.488 6                                                                 137644297.846 6 136393004.122 6 102786377.104 6 110830502.821 6 105467734.747 5                        39.200          38.000          41.800          40.400          35.300
C43  25629246.258 6  25629247.391 6  25629245.594 7  25629238.301 6  25629243.129 5                                     -2912.074 6                                                                 134682793.446 6 133458427.762 6 100574917.565 7 108445947.353 6 103198479.797 5                        41.300          40.700          42.000          40.100          35.700
E02  27711360.805 6  27711361.945 6  27711354.758 7  27711359.484 6  27711362.117 7      1155.410 6                                                                 145624186.831 6 108745334.186 6 118201426.255 7 111582160.518 6 110163756.644 7        39.000          39.500          43.600          40.400          44.000
E04  26044754.617 7  26044755.527 7  26044747.801 7  26044753.434 7  26044755.664 8      2888.035 7                                                                 136866194.515 7 102205324.198 7 111092698.913 7 104871528.632 7 103538439.714 8        45.500          47.400          47.600          46.700          50.800
E10  23637638.289 8  23637639.980 8  23637632.863 9  23637637.457 8  23637639.758 9       387.063 8                                                                 124216682.954 8  92759253.713 8 100825234.021 9  95179046.709 8  93969156.005 9        52.700          53.200          57.300          53.100          56.800
E11  24419097.281 7  24419095.793 7  24419087.828 8  24419093.621 7  24419095.727 8      1470.625 7                                                                 128323237.110 7  95825789.183 7 104158433.602 8  98325574.467 7  97075708.621 8        46.300          45.500          50.800          45.600          48.500
E12  23870557.352 8  23870556.352 8  23870547.805 8  23870554.012 8  23870556.230 8      -728.215 8                                                                 125440651.593 8  93673226.265 8 101818683.024 8  96116865.108 8  94895051.485 8        48.500          50.200          53.600          50.300          53.800
E19  25962575.703 7  25962576.883 7  25962568.730 7  25962574.273 7  25962576.609 8       473.215 7                                                                 136434268.344 7 101882738.749 7 110742076.017 7 104540540.437 7 103211644.887 8        45.700          45.300          47.400          45.400          49.100
E24  27356689.445 7  27356691.578 7  27356684.023 7  27356688.520 7  27356691.008 7     -2874.504 7                                                                 143760377.752 7 107353529.714 7 116688587.173 7 110154043.030 7 108753795.158 7        42.300          43.800          45.800          43.300          47.800
E25  26305927.469 7  26305930.488 7  26305920.629 8  26305927.719 7  26305930.258 8     -1133.684 7                                                                 138238575.834 7 103230111.632 7 112206604.267 8 105923061.703 7 104576592.464 8        43.800          45.500          48.600          45.100          49.900
E33  27424979.617 6  27424981.453 7  27424973.969 7  27424978.039 6  27424980.934 7     -2152.965 6                                                                 144119488.846 6 107621848.572 7 116980183.150 7 110429344.788 6 109025602.476 7        41.800          43.000          44.500          40.800          46.200
G01  20520514.852 8                  20520522.281 7  20520522.211 8  20520518.117 9      1305.738 8                                                                 107836021.757 8                  84028127.027 7  84028130.024 8  80526943.833 9        50.300                          44.400          50.900          54.800
G03  22153792.391 7                  22153799.180 6  22153799.566 7  22153797.512 8      2893.961 7                                                                 116418850.236 7                  90716129.570 6  90716137.571 7  86936289.223 8        45.600                          36.800          47.200          51.000
G08  21423687.789 8                  21423694.742 8  21423695.367 8  21423691.430 9     -2415.965 8                                                                 112582183.708 8                  87726475.693 8  87726475.698 8  84071191.636 9        50.300                          53.200          50.200          54.100
G10  24660496.438 6                  24660503.441 5  24660503.262 6  24660499.125 7     -3303.219 6                                                                 129592005.133 6                 100980961.911 5 100980907.909 6  96773394.378 7        39.700                          34.200          39.200          43.400
G14  23210339.656 6  23210337.613 7  23210343.789 4  23210343.941 7  23210345.488 8       209.145 6                                                                 121971159.630 6 121971168.654 7  95042479.447 4  95042485.454 7  91082380.155 8        40.600          44.400          29.600          43.900          48.000
G17  24664643.984 5                  24664648.305 3  24664648.566 6                      3264.570 5                                                                 129613504.762 5                 100997610.563 3 100997615.581 6                        35.500                          21.300          38.400
G21  20849350.555 8                  20849353.770 7                                      -244.191 8                                                                 109564096.547 8                  85374649.076 7                                        49.600                          43.700
G22  22395421.156 7                  22395426.266 5                                      1259.836 7                                                                 117688888.941 7                  91705557.402 5                                        46.000                          33.500
G27  23901028.969 6                  23901035.676 6  23901036.078 6  23901033.191 7     -3597.188 6                                                                 125600755.231 6                  97870782.704 6  97870781.705 6  93792824.252 7        40.200                          37.100          40.600          45.100
G32  22886634.016 7                  22886640.199 7  22886640.574 7  22886636.758 7      -651.168 7                                                                 120270075.542 7                  93716997.902 7  93717000.904 7  89812085.171 7        45.400                          45.500          45.800          47.800
I06  38482356.281 6        65.172 6 151013108.787 6        38.300
I09  37685543.492 6         9.152 6 147886229.934 6        39.500
R01  23550466.016 6  23550465.730 6  23550469.957 5  23550471.129 5      4547.586 6                                                 125890775.002 6 125890756.008 6  97915041.541 5  97915064.508 5        40.200          38.200          34.400          33.300
R06  23607641.578 5  23607639.242 5                                     -4119.941 5                                                 125974933.979 5 125974903.029 5                                        32.400          31.100
R07  20045508.289 9  20045507.426 8  20045510.766 8  20045510.848 8     -1479.008 9                                                 107305238.381 9 107305268.385 8  83459709.460 8  83459651.464 8        54.200          51.800          50.100          49.900
R08  20023909.039 8  20023908.457 8  20023911.012 8  20023910.602 8      2510.426 8                                                 107227195.522 8 107227210.538 8  83398972.573 8  83398997.581 8        51.700          50.000          50.400          49.500
R14  23167180.734 6  23167177.730 6  23167183.047 6  23167182.027 6      -843.520 6                                                 123494055.472 6 123494301.449 6  96050976.801 6  96050983.802 6        41.500          39.800          39.700          39.100
R15  24466030.258 6  24466029.191 6  24466032.910 6  24466032.848 6      2060.574 6                                                 130739072.434 6 130739054.413 6 101685935.979 6 101685942.972 6        41.500          39.800          37.400          36.900
R21  24088834.992 6  24088833.266 6  24088837.535 6  24088837.609 6     -3329.352 6                                                 128904319.112 6 128904321.125 6 100258962.689 6 100258987.698 6        40.800          39.900          36.500          36.500
R22  20515993.578 8  20515992.836 8  20515994.273 8  20515994.770 8     -1841.980 8                                                 109515807.882 8 109515815.886 8  85178975.705 8  85178996.708 8        52.800          51.500          49.200          49.500
R23  20055154.992 8  20055154.094 8                                      1879.227 8                                                 107281486.822 8 107281797.818 8                                        50.800          49.300
R24  23371196.844 7  23371196.195 7  23371199.598 6  23371199.348 6      3476.508 7                                                 124976284.007 7 124976285.028 7  97203782.393 6  97203792.372 6        44.700          43.400          41.800          40.900
S23  38478089.297 7  38478072.813 7         4.363 7                 202204883.211 7 150994947.473 7        44.200          42.300
S26  40286562.828 5                       -78.723 5                 211707143.361 5                        33.300
S36  37806291.094 7  37806275.207 7         -.238 7                 198674587.317 7 148360074.825 7        45.600          46.300
S48  67108863.984 6                       -32.492 6                 400806448.394 6                        39.800
> 2023 01 01 01 00 01.0000000  0 50
C05                  39902334.688 5                  39902323.996 6                  39902326.598 6                       -18.855 5                       -15.356 6                       -14.613 6                 207781917.623 5                 168839805.329 6                 160670141.432 6                        35.200                          37.200                          39.800
C06                  40000219.859 5                  40000206.164 6                  40000210.516 6                      1162.020 5                       944.438 6                       898.744 6                 208291647.299 5                 169253979.282 6                 161064283.416 6                        35.500                          36.600                          38.500
C09                  40372374.531 6                  40372361.172 6                  40372368.105 6                      1497.031 6                      1216.451 6                      1157.591 6                 210229560.286 6                 170828690.999 6                 162562809.232 6                        37.300                          36.500                          39.600
C14                  23681040.289 7                  23681027.082 7                  23681033.191 7                     -2324.266 7                     -1888.540 7                     -1797.159 7                 123313483.536 7                 100202283.184 7                  95353811.293 7                        46.200                          47.300                          47.800
C16                  40171753.734 6                  40171743.996 6                  40171751.141 6                       953.699 6                       775.028 6                       737.525 6                 209184871.687 6                 169979806.192 6                 161755000.341 6                        39.100                          36.400                          38.400
C27  22489835.867 8  22489836.984 8  22489833.352 8  22489827.613 8  22489830.895 7                      1847.906 8      1830.973 8      1379.923 8      1487.913 8      1415.918 7                 118184884.250 8 117110496.770 8  88254960.283 8  95161834.402 8  90557245.286 7                        50.500          51.400          51.000          51.300          45.200
C28  21792867.969 8  21792869.656 8  21792865.996 8  21792860.258 8  21792863.965 7                      -881.314 8      -873.449 8      -658.130 8      -709.633 8      -675.296 7                 114522321.106 8 113481223.904 8  85519935.305 8  92212767.297 8  87750872.203 7                        52.100          51.600          52.500          52.300          47.200
C30  26684228.922 5  26684230.055 5  26684227.492 5  26684222.492 5  26684226.426 4                      3063.125 5      3035.328 5      2287.374 5      2466.434 5                                 140226561.751 5 138951790.308 5 104714649.417 5 112909680.044 5 107446321.00514                        35.400          34.400          35.400          35.000          28.000
C32  26871268.113 5  26871270.125 5  26871270.168 6  26871262.305 6  26871267.418 5                      3501.689 5      3469.824 5      2614.886 6      2819.547 6      2683.112 5                 141209456.299 5 139925761.461 5 105448648.270 6 113701116.142 6 108199462.508 5                        35.500          35.400          40.100          37.700          32.300
C33  22490763.594 8  22490764.563 8  22490785.949 8  22490767.414 8  22490783.441 7                      -895.833 8      -887.934 8      -668.968 8      -721.322 8      -686.425 7                 118189880.295 8 117115448.529 8  88258813.931 8  95165958.922 8  90561207.439 7                        53.000          51.800          53.300          52.100          47.300
C36  27217771.375 6  27217772.539 6  27217775.438 6  27217768.543 6  27217773.227 5                      -753.171 6      -746.637 6      -562.435 6      -606.465 6      -577.118 5                 143030346.813 6 141730087.468 6 106808400.272 6 115167292.711 6 109594695.588 5                        36.000          37.400          40.500          40.400          33.500
C39  40042380.383 6  40042380.977 6  40042375.207 7  40042368.750 6  40042372.984 5                       611.685 6       606.078 6       456.743 7       492.490 6       468.665 5                 210424123.658 6 208511185.676 6 157134898.557 7 169432375.560 6 161234049.671 5                        40.800          39.400          42.800          39.900          35.300
C41  22729421.125 8  22729421.656 8  22729428.766 8  22729418.445 8  22729426.238 7                      2218.200 8      2197.840 8      1656.452 8      1786.088 8      1699.658 7                 119443965.117 8 118358120.960 8  89195217.098 8  96175674.812 8  91522034.691 7                        51.800          51.000          53.300          51.200          46.100
C42  26193419.934 6  26193420.906 6  26193428.004 6  26193420.328 6  26193425.766 5                     -3101.640 6     -3073.496 6     -2316.152 6     -2497.378 6     -2376.539 5                 137647399.486 6 136396077.514 6 102788693.256 6 110833000.199 6 105470111.286 5                        39.400          38.300          41.600          40.800          35.500
C43  25629805.398 6  25629806.789 6  25629804.871 6  25629797.582 6  25629802.281 5                     -2938.774 6     -2912.145 6     -2194.527 6     -2366.277 6     -2251.778 5                 134685732.221 6 133461339.816 6 100577112.092 6 108448313.630 6 103200731.575 5                        41.300          40.800          41.800          40.300          35.700
E02  27711141.172 6  27711142.082 6  27711134.941 7  27711139.563 6  27711142.270 7      1155.043 6       862.719 6       937.743 7       885.236 6       873.977 7 145623031.530 6 108744471.468 6 118200488.512 7 111581275.282 6 110162882.667 7        38.600          39.100          43.600          40.600          44.200
E04  26044204.953 7  26044205.957 7  26044198.262 7  26044203.789 7  26044206.066 8      2888.020 7      2156.664 7      2344.233 7      2212.950 7      2184.808 8 136863306.417 7 102203167.533 7 111090354.680 7 104869315.683 7 103536254.906 8        45.300          47.000          47.600          46.800          50.700
E10  23637564.602 8  23637566.410 8  23637559.242 9  23637563.777 8  23637566.117 9       386.949 8       289.024 8       314.159 9       296.567 8       292.794 9 124216295.910 8  92758964.688 8 100824919.861 9  95178750.141 8  93968863.210 9        53.100          53.000          57.300          53.100          56.800
E11  24418817.281 7  24418815.809 7  24418808.031 8  24418813.754 7  24418815.855 8      1470.602 7      1098.273 7      1193.762 8      1126.921 7      1112.596 8 128321766.393 7  95824690.910 7 104157239.840 8  98324447.546 7  97074596.025 8        46.500          45.900          50.800          46.100          48.600
E12  23870695.859 8  23870694.953 8  23870686.305 8  23870692.680 8  23870694.797 8      -728.289 8      -543.787 8      -591.075 8      -557.977 8      -550.874 8 125441379.795 8  93673770.052 8 101819274.099 8  96117423.085 8  94895602.360 8        48.500          50.100          53.600          50.200          53.900
E19  25962485.570 7  25962486.840 7  25962478.867 7  25962484.188 7  25962486.605 8       472.809 7       353.249 7       383.940 7       362.445 7       357.845 8 136433795.325 7 101882385.500 7 110741692.078 7 104540177.992 7 103211287.042 8        45.700          45.300          47.400          45.500          49.000
E24  27357236.492 7  27357238.684 7  27357231.172 7  27357235.559 7  27357237.984 8     -2874.453 7     -2146.465 7     -2333.113 7     -2202.471 7     -2174.487 8 143763252.156 7 107355676.178 7 116690920.287 7 110156245.501 7 108755969.644 8        42.600          43.700          45.900          43.500          48.000
E25  26306143.141 7  26306146.316 7  26306136.266 8  26306143.465 7  26306146.023 8     -1134.117 7      -846.699 7      -920.337 8      -868.787 7      -857.748 8 138239709.695 7 103230958.331 7 112207524.604 8 105923930.490 7 104577450.212 8        44.200          45.900          48.600          45.700          50.100
E33  27425389.000 6  27425391.129 7  27425383.645 7  27425387.680 6  27425390.598 7     -2152.809 6     -1607.639 7     -1747.408 7     -1649.578 6     -1628.591 7 144121641.661 6 107623456.211 7 116981930.558 7 110430994.366 6 109027231.067 7        41.600          43.100          44.500          41.100          46.500
G01  20520266.164 8                  20520273.684 7  20520273.699 8  20520269.656 9      1306.008 8                      1017.436 7      1017.391 8       974.992 9 107834716.051 8                  84027109.591 7  84027112.633 8  80525968.841 9        50.300                          43.200          50.500          54.500
G03  22153241.367 7                  22153248.586 6  22153249.051 7  22153246.813 8      2893.734 7                      2254.946 6      2254.947 7      2160.995 8 116415956.388 7                  90713874.624 6  90713882.624 7  86934128.227 8        45.600                          36.900          47.200          50.900
G08  21424147.703 8                  21424154.461 8  21424155.227 8  21424151.199 8     -2416.352 8                     -1882.730 8     -1882.730 8     -1804.290 8 112584599.878 8                  87728358.423 8  87728358.428 8  84072995.926 8        50.300                          53.100          50.500          53.900
G10  24661124.766 6                  24661131.984 5  24661131.117 6  24661127.633 7     -3303.211 6                     -2573.907 5     -2573.896 6     -2466.654 7 129595308.315 6                 100983535.818 5 100983481.805 6  96775861.032 7        39.400                          34.000          39.800          43.300
G14  23210299.594 6  23210297.801 7  23210304.004 5  23210304.363 7  23210305.656 7       208.566 6       208.847 7       162.712 5       162.726 7       155.953 7 121970950.815 6 121970959.807 7  95042316.735 5  95042322.728 7  91082224.202 7        40.400          44.100          30.200          44.100          47.600
G17  24664022.375 5                  24664027.129 3  24664026.785 6                      3264.582 5                      2543.885 3      2543.893 6                 129610240.122 5                 100995066.678 3 100995071.688 6                        34.700                          22.000          38.300
G21  20849396.742 8                  20849400.293 7                                      -244.344 8                      -190.348 7                                 109564340.831 8                  85374839.423 7                                        49.000                          43.900
G22  22395181.719 7                  22395186.488 5                                      1259.387 7                       981.526 5                                 117687629.321 7                  91704575.876 5                                        46.100                          33.400
G27  23901713.625 6                  23901720.289 6  23901720.551 6  23901717.652 7     -3597.324 6                     -2803.000 6     -2803.004 6     -2686.226 7 125604352.419 6                  97873585.705 6  97873584.709 6  93795510.478 7        40.200                          36.900          40.400          44.900
G32  22886757.992 7                  22886764.063 7  22886764.363 7  22886760.754 7      -651.816 7                      -507.670 7      -507.652 7      -486.510 7 120270727.051 7                  93717505.572 7  93717508.556 7  89812571.682 7        44.900                          45.300          45.500          47.600
I06  38482339.234 6        65.129 6 151013043.481 6        38.000
I09  37685541.414 6         9.207 6 147886220.741 6        39.500
R01  23549615.672 6  23549615.160 6  23549620.051 5  23549620.281 5      4547.582 6      4547.650 6      3537.083 5      3537.053 5 125886227.360 6 125886208.358 6  97911504.459 5  97911527.455 5        40.200          37.800          34.300          33.700
R06  23608412.688 5  23608411.398 5                                     -4120.234 5     -4120.078 5                                 125979054.082 5 125979023.107 5                                        33.200          31.100
R07  20045784.672 9  20045783.895 8  20045787.703 8  20045787.145 8     -1479.699 9     -1479.375 8     -1150.619 8     -1150.625 8 107306717.755 9 107306747.760 8  83460860.078 8  83460802.088 8        54.000          51.800          50.200          49.800
R08  20023439.992 8  20023439.805 8  20023441.910 8  20023441.852 8      2509.742 8      2510.089 8      1952.290 8      1952.282 8 107224685.448 8 107224700.449 8  83397020.283 8  83397045.299 8        51.600          49.800          50.400          49.800
R14  23167337.914 6  23167336.090 6  23167341.113 6  23167340.387 6      -844.227 6      -843.816 6      -656.286 6      -656.280 6 123494899.266 6 123495145.265 6  96051633.087 6  96051640.082 6        41.700          40.000          39.500          39.500
R15  24465645.023 6  24465644.523 6  24465647.043 6  24465647.211 6      2060.020 6      2060.302 6      1602.505 6      1602.487 6 130737012.095 6 130736994.111 6 101684333.474 6 101684340.485 6        41.800          39.900          37.100          36.700
R21  24089456.047 6  24089455.137 6  24089458.813 6  24089459.711 6     -3329.434 6     -3329.351 6     -2589.508 6     -2589.482 6 128907648.452 6 128907650.476 6 100261552.197 6 100261577.181 6        40.800          39.800          36.700          36.500
R22  20516338.656 8  20516337.984 8  20516339.047 8  20516340.027 8     -1842.262 8     -1842.105 8     -1432.753 8     -1432.752 8 109517649.994 8 109517657.992 8  85180408.458 8  85180429.460 8        53.200          51.600          49.100          49.300
R23  20054803.938 8  20054802.832 8                                      1878.973 8      1879.146 8                                 107279607.655 8 107279918.672 8                                        51.000          49.600
R24  23370546.602 7  23370545.852 7  23370549.215 7  23370549.148 6      3476.598 7      3476.669 7      2704.083 7      2704.063 6 124972807.350 7 124972808.359 7  97201078.311 7  97201088.309 6        45.100          43.200          42.200          40.900
S23  38478088.359 7  38478071.977 7         4.461 7         3.362 7 202204878.734 7 150994944.111 7        44.200          42.600
S26  40286576.063 5                       -78.938 5                 211707222.053 5                        33.100
S36  37806290.891 7  37806275.266 7         -.094 7         -.051 7 198674587.418 7 148360074.876 7        45.600          45.900
S48  67108863.984 6                       -32.379 6                 400806480.695 6                        39.900
> 2023 01 01 01 00 02.0000000  0 50
C05                  39902338.391 5                  39902327.582 6                  39902330.477 6                       -19.074 5                       -15.417 6                       -14.678 6                 207781936.598 5                 168839820.746 6                 160670156.109 6                        35.100                          37.400                          39.800
C06                  39999996.867 5                  39999983.004 6                  39999987.371 6                      1161.824 5                       944.268 6                       898.574 6                 208290485.240 5                 169253035.013 6                 161063384.842 6                        35.000                          36.500                          38.400
C09                  40372087.391 6                  40372073.793 6                  40372080.500 6                      1496.957 6                      1216.354 6                      1157.503 6                 210228063.383 6                 170827474.645 6                 162561651.729 6                        37.800                          36.100                          40.000
C14                  23681486.789 7                  23681473.566 7                  23681479.410 7                     -2324.668 7                     -1888.807 7                     -1797.409 7                 123315807.982 7                 100204171.991 7                  95355608.702 7                        45.900                          47.400                          47.900
C16                  40171570.859 6                  40171560.848 6                  40171567.984 6                       953.391 6                       774.846 6                       737.346 6                 209183918.130 6                 169979031.346 6                 161754262.995 6                        39.200                          36.000                          38.300
C27  22489484.348 8  22489485.219 8  22489481.715 8  22489475.996 8  22489479.289 7                      1847.635 8      1830.621 8      1379.732 8      1487.701 8      1415.718 7                 118183036.615 8 117108665.937 8  88253580.551 8  95160346.702 8  90555829.568 7                        50.400          51.600          50.900          51.000          45.300
C28  21793035.914 8  21793037.367 8  21793033.793 8  21793028.004 8  21793031.750 7                      -881.711 8      -873.922 8      -658.410 8      -709.945 8      -675.590 7                 114523202.817 8 113482097.593 8  85520593.715 8  92213477.242 8  87751547.794 7                        52.000          51.900          52.600          52.400          47.100
C30  26683646.020 5  26683646.797 5  26683644.559 5  26683639.453 5  26683643.531 4                      3063.204 5      3035.309 5      2287.467 5      2466.473 5      2347.122 4                 140223498.547 5 138948754.958 5 104712361.951 5 112907213.571 5 107443973.882 4                        35.500          34.100          35.600          35.500          27.900
C32  26870602.148 5  26870603.508 5  26870603.758 6  26870595.973 6  26870601.082 5                      3501.692 5      3469.566 5      2614.912 6      2819.497 6      2683.084 5                 141205954.606 5 139922291.653 5 105446033.359 6 113698296.645 6 108196779.423 5                        35.300          35.300          40.400          37.900          32.600
C33  22490934.137 8  22490935.156 8  22490956.559 8  22490938.055 8  22490953.957 7                      -896.346 8      -888.457 8      -669.353 8      -721.726 8      -686.804 7                 118190776.641 8 117116336.727 8  88259483.283 8  95166680.648 8  90561894.244 7                        53.000          51.900          53.200          52.100          47.300
C36  27217914.867 5  27217916.008 6  27217918.863 6  27217911.926 6  27217916.648 5                      -753.593 5      -746.945 6      -562.781 6      -606.801 6      -577.446 5                 143031100.406 5 141730834.226 6 106808963.054 6 115167899.512 6 109595273.034 5                        35.700          37.700          40.600          40.400          33.000
C39  40042264.184 6  40042264.531 6  40042258.766 7  40042252.504 6  40042256.629 5                       611.401 6       605.855 6       456.600 7       492.349 6       468.522 5                 210423512.258 6 208510579.770 6 157134441.957 7 169431883.211 6 161233581.149 5                        40.800          39.500          42.500          39.700          35.200
C41  22728998.977 8  22728999.820 8  22729006.734 8  22728996.434 8  22729004.211 7                      2217.777 8      2197.363 8      1656.137 8      1785.744 8      1699.334 7                 119441747.340 8 118355923.342 8  89193560.961 8  96173889.068 8  91520335.356 7                        51.800          51.000          53.000          51.000          46.100
C42  26194010.035 6  26194010.898 6  26194018.250 6  26194010.574 6  26194016.043 5                     -3101.740 6     -3073.859 6     -2316.246 6     -2497.542 6     -2376.692 5                 137650501.225 6 136399151.101 6 102791009.502 6 110835497.741 6 105472487.979 5                        38.800          38.800          41.800          40.800          35.300
C43  25630364.793 6  25630365.914 6  25630364.078 6  25630356.867 6  25630361.543 5                     -2938.881 6     -2912.367 6     -2194.653 6     -2366.397 6     -2251.894 5                 134688671.102 6 133464252.009 6 100579306.745 6 108450680.027 6 103202983.469 5                        41.100          41.400          41.800          40.300          35.600
E02  27710921.391 6  27710922.566 6  27710915.449 7  27710919.973 6  27710922.512 7      1154.523 6       862.379 6       937.366 7       884.888 6       873.630 7 145621876.701 6 108743609.089 6 118199551.146 7 111580390.394 6 110162009.037 7        38.700          39.000          43.500          40.500          43.900
E04  26043655.156 7  26043656.355 7  26043648.563 7  26043654.234 7  26043656.520 8      2887.781 7      2156.571 7      2344.091 7      2212.826 7      2184.699 8 136860418.491 7 102201010.962 7 111088010.589 7 104867102.856 7 103534070.207 8        45.100          46.900          47.600          46.900          50.400
E10  23637490.961 8  23637492.801 8  23637485.590 9  23637490.164 8  23637492.488 9       386.719 8       288.909 8       314.026 9       296.441 8       292.671 9 124215909.028 8  92758675.780 8 100824605.835 9  95178453.700 8  93968570.540 9        53.100          53.300          57.300          53.300          57.200
E11  24418537.664 7  24418536.035 7  24418528.133 8  24418533.867 7  24418536.020 8      1470.547 7      1098.175 7      1193.675 8      1126.827 7      1112.499 8 128320295.783 7  95823592.735 7 104156046.164 8  98323320.719 7  97073483.526 8        46.200          45.900          50.800          45.900          48.500
E12  23870834.383 8  23870833.586 8  23870825.090 8  23870831.176 8  23870833.398 8      -728.555 8      -543.926 8      -591.223 8      -558.113 8      -551.032 8 125442108.180 8  93674313.978 8 101819865.322 8  96117981.198 8  94896153.392 8        48.600          49.800          53.600          50.500          53.900
E19  25962395.758 7  25962397.012 7  25962388.785 7  25962394.332 7  25962396.684 8       472.195 7       352.886 7       383.576 7       362.094 7       357.487 8 136433322.757 7 101882032.613 7 110741308.502 7 104539815.898 7 103210929.555 8        45.700          45.300          47.300          45.700          49.000
E24  27357783.352 7  27357785.473 7  27357778.000 7  27357782.492 7  27357784.988 8     -2874.609 7     -2146.544 7     -2333.201 7     -2202.521 7     -2174.521 8 143766126.654 7 107357822.722 7 116693253.488 7 110158448.021 7 108758144.165 8        42.500          43.700          45.900          43.800          48.200
E25  26306358.914 7  26306362.160 7  26306352.336 8  26306359.277 7  26306361.863 8     -1134.602 7      -847.023 7      -920.691 8      -869.135 7      -858.080 8 138240843.990 7 103231805.353 7 112208445.296 8 105924799.625 7 104578308.292 8        43.500          45.500          48.600          45.500          50.100
E33  27425798.594 6  27425800.691 7  27425793.250 7  27425797.516 6  27425800.285 7     -2153.039 6     -1607.666 7     -1747.496 7     -1649.598 6     -1628.654 7 144123794.570 6 107625063.877 7 116983678.055 7 110432643.964 6 109028859.721 7        41.700          43.200          44.600          41.200          46.400
G01  20520017.984 8                  20520025.461 6  20520025.320 8  20520021.266 9      1305.043 8                      1017.087 6      1017.125 8       974.748 9 107833410.722 8                  84026092.504 6  84026095.508 8  80524994.093 9        51.200                          39.600          50.800          54.400
G03  22152691.172 7                  22152697.965 6  22152698.297 7  22152696.184 8      2893.305 7                      2254.682 6      2254.669 7      2160.724 8 116413062.878 7                  90711619.942 6  90711627.955 7  86931967.503 8        45.200                          36.800          47.200          51.000
G08  21424607.594 8                  21424614.418 8  21424615.082 8  21424611.074 8     -2416.895 8                     -1883.086 8     -1883.086 8     -1804.614 8 112587016.505 8                  87730241.509 8  87730241.514 8  84074800.540 8        49.700                          53.100          50.500          53.700
G10  24661753.570 6                  24661760.785 5  24661760.445 6  24661756.184 7     -3303.250 6                     -2573.912 5     -2573.934 6     -2466.682 7 129598611.499 6                 100986109.730 5 100986055.740 6  96778327.714 7        39.200                          34.000          39.600          43.600
G14  23210260.023 6  23210258.270 7  23210264.438 4  23210264.883 7  23210266.043 7       207.895 6       208.208 7       162.264 4       162.261 7       155.490 7 121970742.580 6 121970751.598 7  95042154.471 4  95042160.467 7  91082068.712 7        40.400          44.300          28.600          44.200          47.200
G17  24663401.813 5                  24663405.832 3  24663405.676 6                      3264.824 5                      2543.885 3      2543.815 6                                                                 100992527.873 6                        33.500                          21.100          38.600
G21  20849443.266 8                  20849446.820 7                                      -244.738 8                      -190.531 7                                 109564585.348 8                  85375029.954 7                                        49.100                          43.700
G22  22394942.031 7                  22394946.910 5                                      1258.781 7                       981.101 5                                 117686370.235 7                  91703594.775 5                                        46.000                          34.000
G27  23902398.172 6                  23902404.938 6  23902405.039 6  23902402.219 7     -3597.637 6                     -2803.159 6     -2803.139 6     -2686.331 7 125607949.797 6                  97876388.863 6  97876387.849 6  93798196.809 7        39.800                          36.900          40.500          44.900
G32  22886882.086 7                  22886888.102 7  22886888.316 7  22886885.000 7      -652.391 7                      -508.142 7      -508.157 7      -486.978 7 120271379.166 7                  93718013.714 7  93718016.713 7  89813058.659 7        44.500                          45.300          44.900          47.900
I06  38482322.438 6        65.293 6 151012978.156 6        37.900
I09  37685539.461 6         9.059 6 147886211.615 6        39.600
R01  23548765.172 6  23548764.480 6  23548769.672 5  23548769.527 5      4547.449 6      4547.510 6      3536.986 5      3536.955 5 125881679.842 6 125881660.849 6  97907967.473 5  97907990.500 5        40.200          38.100          34.400          33.800
R06  23609185.281 5  23609183.805 5                                     -4120.379 5     -4120.288 5                                 125983174.400 5 125983143.395 5                                        32.600          31.000
R07  20046060.578 9  20046060.395 8  20046064.117 8  20046063.723 8     -1480.609 9     -1480.227 8     -1151.279 8     -1151.272 8 107308197.962 9 107308227.987 8  83462011.357 8  83461953.360 8        54.100          51.800          50.200          49.800
R08  20022971.375 8  20022971.188 8  20022973.172 8  20022973.246 8      2508.863 8      2509.296 8      1951.687 8      1951.674 8 107222176.144 8 107222191.153 8  83395068.596 8  83395093.624 8        51.800          50.100          50.200          49.900
R14  23167496.797 7  23167494.652 6  23167499.617 6  23167498.797 6      -845.023 7      -844.554 6      -656.871 6      -656.885 6 123495743.832 7 123495989.819 6  96052289.958 6  96052296.967 6        42.300          39.900          39.800          39.400
R15  24465259.578 7  24465258.738 6  24465262.156 6  24465261.738 6      2059.383 7      2059.707 6      1601.924 6      1601.974 6 130734952.410 7 130734934.405 6 101682731.550 6 101682738.511 6        42.200          39.800          37.200          36.400
R21  24090078.367 6  24090077.746 6  24090082.609 6  24090081.832 6     -3329.648 6     -3329.489 6     -2589.608 6     -2589.615 6 128910977.952 6 128910979.965 6 100264141.805 6 100264166.796 6        41.100          39.800          36.900          36.200
R22  20516683.914 8  20516683.195 8  20516685.059 8  20516685.191 8     -1842.777 8     -1842.518 8     -1433.040 8     -1433.071 8 109519492.512 8 109519500.510 8  85181841.498 8  85181862.532 8        52.600          51.700          49.000          49.400
R23  20054452.664 8  20054451.652 8                                      1878.590 8      1878.822 8                                 107277728.839 8 107278039.850 8                                        51.000          49.600
R24  23369896.547 7  23369895.570 7  23369899.316 7  23369898.941 6      3476.633 7      3476.726 7      2704.092 7      2704.110 6 124969330.631 7 124969331.633 7  97198374.219 7  97198384.198 6        45.000          43.200          42.200          40.800
S23  38478087.016 7  38478071.141 7         4.422 7         3.335 7 202204874.260 7 150994940.775 7        44.700          42.700
S26  40286597.016 5                       -78.836 5                 211707300.748 5                        32.900
S36  37806291.516 7  37806275.316 7         -.406 7         -.084 7 198674587.662 7 148360074.959 7        45.700          45.900
S48  67108863.984 6                       -32.371 6                 400806513.013 6                        40.200
> 2023 01 01 01 00 03.0000000  0 50
C05                  39902342.008 5                  39902331.242 6                  39902334.152 6                       -19.047 5                       -15.440 6                       -14.691 6                 207781955.601 5                 168839836.186 6                 160670170.800 6                        35.100                          37.200                          39.500
C06                  39999773.664 5                  39999759.914 6                  39999764.500 6                      1161.863 5                       944.089 6                       898.406 6                 208289323.396 5                 169252090.924 6                 161062486.436 6                        35.300                          36.800                          38.500
C09                  40371799.859 6                  40371786.348 5                  40371793.367 6                      1496.523 6                      1216.175 5                      1157.327 6                 210226566.695 6                 170826258.470 5                 162560494.402 6                        37.600                          35.900                          39.300
C14                  23681933.094 7                  23681919.984 7                  23681925.852 8                     -2325.059 7                     -1889.156 7                     -1797.750 8                 123318132.867 7                 100206061.147 7                  95357406.452 8                        46.400                          47.600                          48.000
C16                  40171387.930 6                  40171377.813 5                  40171384.789 6                       953.188 6                       774.642 5                       737.158 6                 209182964.816 6                 169978256.704 5                 161753525.837 6                        38.800                          35.700                          38.400
C27  22489132.645 8  22489133.750 8  22489130.273 8  22489124.438 8  22489127.773 7                      1847.313 8      1830.406 8      1379.483 8      1487.455 8      1415.482 7                 118181189.302 8 117106835.408 8  88252201.068 8  95158859.246 8  90554414.086 7                        50.400          51.800          50.700          50.800          45.200
